{
  "version": "v0.2",
  "generated_at": "2026-05-29T08:25:58.541840Z",
  "n_facilities": 59,
  "facilities": [
    {
      "facility_id": "akcansa-buyukcekmece",
      "operator": "Ak\u00e7ansa",
      "sector": "cement",
      "province": "\u0130stanbul",
      "lat": 41.0397,
      "lon": 28.5587,
      "annual_capacity_t": 2500000.0
    },
    {
      "facility_id": "akcansa-canakkale",
      "operator": "Ak\u00e7ansa",
      "sector": "cement",
      "province": "\u00c7anakkale",
      "lat": 40.345,
      "lon": 26.68,
      "annual_capacity_t": 5500000.0
    },
    {
      "facility_id": "akcansa-ladik",
      "operator": "Ak\u00e7ansa",
      "sector": "cement",
      "province": "Samsun",
      "lat": 40.92,
      "lon": 36.07,
      "annual_capacity_t": 1000000.0
    },
    {
      "facility_id": "cimsa-mersin",
      "operator": "\u00c7imsa",
      "sector": "cement",
      "province": "Mersin",
      "lat": 36.83,
      "lon": 34.66,
      "annual_capacity_t": 2400000.0
    },
    {
      "facility_id": "cimsa-eskisehir",
      "operator": "\u00c7imsa",
      "sector": "cement",
      "province": "Eski\u015fehir",
      "lat": 39.78,
      "lon": 30.52,
      "annual_capacity_t": 1500000.0
    },
    {
      "facility_id": "cimsa-kayseri",
      "operator": "\u00c7imsa",
      "sector": "cement",
      "province": "Kayseri",
      "lat": 38.74,
      "lon": 35.49,
      "annual_capacity_t": 1700000.0
    },
    {
      "facility_id": "cimsa-nigde",
      "operator": "\u00c7imsa",
      "sector": "cement",
      "province": "Ni\u011fde",
      "lat": 37.96,
      "lon": 34.68,
      "annual_capacity_t": 1400000.0
    },
    {
      "facility_id": "oyak-bolu",
      "operator": "OYAK \u00c7imento",
      "sector": "cement",
      "province": "Bolu",
      "lat": 40.74,
      "lon": 31.61,
      "annual_capacity_t": 3500000.0
    },
    {
      "facility_id": "oyak-unye",
      "operator": "OYAK \u00c7imento",
      "sector": "cement",
      "province": "Ordu",
      "lat": 41.13,
      "lon": 37.3,
      "annual_capacity_t": 3200000.0
    },
    {
      "facility_id": "oyak-mardin",
      "operator": "OYAK \u00c7imento",
      "sector": "cement",
      "province": "Mardin",
      "lat": 37.31,
      "lon": 40.74,
      "annual_capacity_t": 3000000.0
    },
    {
      "facility_id": "oyak-adana",
      "operator": "OYAK \u00c7imento",
      "sector": "cement",
      "province": "Adana",
      "lat": 36.99,
      "lon": 35.32,
      "annual_capacity_t": 3500000.0
    },
    {
      "facility_id": "oyak-aslan",
      "operator": "OYAK \u00c7imento",
      "sector": "cement",
      "province": "Bolu",
      "lat": 40.74,
      "lon": 31.1,
      "annual_capacity_t": 2000000.0
    },
    {
      "facility_id": "limak-ankara",
      "operator": "Limak \u00c7imento",
      "sector": "cement",
      "province": "Ankara",
      "lat": 39.96,
      "lon": 32.85,
      "annual_capacity_t": 2500000.0
    },
    {
      "facility_id": "limak-sanliurfa",
      "operator": "Limak \u00c7imento",
      "sector": "cement",
      "province": "\u015eanl\u0131urfa",
      "lat": 37.16,
      "lon": 38.79,
      "annual_capacity_t": 2500000.0
    },
    {
      "facility_id": "limak-kurtalan",
      "operator": "Limak \u00c7imento",
      "sector": "cement",
      "province": "Siirt",
      "lat": 37.92,
      "lon": 41.69,
      "annual_capacity_t": 1500000.0
    },
    {
      "facility_id": "limak-trakya",
      "operator": "Limak \u00c7imento",
      "sector": "cement",
      "province": "Tekirda\u011f",
      "lat": 40.98,
      "lon": 27.51,
      "annual_capacity_t": 2500000.0
    },
    {
      "facility_id": "limak-ergani",
      "operator": "Limak \u00c7imento",
      "sector": "cement",
      "province": "Diyarbak\u0131r",
      "lat": 38.27,
      "lon": 39.76,
      "annual_capacity_t": 1200000.0
    },
    {
      "facility_id": "limak-derik",
      "operator": "Limak \u00c7imento",
      "sector": "cement",
      "province": "Mardin",
      "lat": 37.36,
      "lon": 40.27,
      "annual_capacity_t": 1000000.0
    },
    {
      "facility_id": "limak-bitlis",
      "operator": "Limak \u00c7imento",
      "sector": "cement",
      "province": "Bitlis",
      "lat": 38.4,
      "lon": 42.1,
      "annual_capacity_t": 800000.0
    },
    {
      "facility_id": "nuh-hereke",
      "operator": "Nuh \u00c7imento",
      "sector": "cement",
      "province": "Kocaeli",
      "lat": 40.78,
      "lon": 29.65,
      "annual_capacity_t": 5700000.0
    },
    {
      "facility_id": "cimentas-izmir",
      "operator": "\u00c7imenta\u015f",
      "sector": "cement",
      "province": "\u0130zmir",
      "lat": 38.43,
      "lon": 27.21,
      "annual_capacity_t": 2500000.0
    },
    {
      "facility_id": "cimentas-edirne",
      "operator": "\u00c7imenta\u015f",
      "sector": "cement",
      "province": "Edirne",
      "lat": 41.67,
      "lon": 26.56,
      "annual_capacity_t": 1500000.0
    },
    {
      "facility_id": "cimentas-elazig",
      "operator": "\u00c7imenta\u015f",
      "sector": "cement",
      "province": "Elaz\u0131\u011f",
      "lat": 38.67,
      "lon": 39.22,
      "annual_capacity_t": 1000000.0
    },
    {
      "facility_id": "konya-cimento",
      "operator": "Konya \u00c7imento",
      "sector": "cement",
      "province": "Konya",
      "lat": 37.86,
      "lon": 32.51,
      "annual_capacity_t": 3500000.0
    },
    {
      "facility_id": "bursa-cimento",
      "operator": "Bursa \u00c7imento",
      "sector": "cement",
      "province": "Bursa",
      "lat": 40.21,
      "lon": 28.99,
      "annual_capacity_t": 2000000.0
    },
    {
      "facility_id": "adana-cimento",
      "operator": "Adana \u00c7imento",
      "sector": "cement",
      "province": "Adana",
      "lat": 36.97,
      "lon": 35.34,
      "annual_capacity_t": 3500000.0
    },
    {
      "facility_id": "askale-erzurum",
      "operator": "A\u015fkale \u00c7imento",
      "sector": "cement",
      "province": "Erzurum",
      "lat": 39.92,
      "lon": 41.06,
      "annual_capacity_t": 1500000.0
    },
    {
      "facility_id": "baticim-izmir",
      "operator": "Bat\u0131\u00e7im",
      "sector": "cement",
      "province": "\u0130zmir",
      "lat": 38.55,
      "lon": 27.05,
      "annual_capacity_t": 2000000.0
    },
    {
      "facility_id": "cimko-adiyaman",
      "operator": "\u00c7imko",
      "sector": "cement",
      "province": "Ad\u0131yaman",
      "lat": 37.76,
      "lon": 38.28,
      "annual_capacity_t": 2000000.0
    },
    {
      "facility_id": "denizli-cimento",
      "operator": "Denizli \u00c7imento",
      "sector": "cement",
      "province": "Denizli",
      "lat": 37.78,
      "lon": 29.09,
      "annual_capacity_t": 2500000.0
    },
    {
      "facility_id": "bolu-cimento",
      "operator": "Bolu \u00c7imento",
      "sector": "cement",
      "province": "Bolu",
      "lat": 40.73,
      "lon": 31.59,
      "annual_capacity_t": 2500000.0
    },
    {
      "facility_id": "goltas-isparta",
      "operator": "G\u00f6lta\u015f \u00c7imento",
      "sector": "cement",
      "province": "Isparta",
      "lat": 37.76,
      "lon": 30.55,
      "annual_capacity_t": 5000000.0
    },
    {
      "facility_id": "erdemir-eregli",
      "operator": "Erdemir",
      "sector": "steel",
      "province": "Zonguldak",
      "lat": 41.28,
      "lon": 31.4,
      "annual_capacity_t": 4000000.0
    },
    {
      "facility_id": "isdemir-iskenderun",
      "operator": "\u0130sdemir",
      "sector": "steel",
      "province": "Hatay",
      "lat": 36.78,
      "lon": 36.18,
      "annual_capacity_t": 5300000.0
    },
    {
      "facility_id": "tosyali-osmaniye",
      "operator": "Tosyal\u0131",
      "sector": "steel",
      "province": "Osmaniye",
      "lat": 37.07,
      "lon": 36.27,
      "annual_capacity_t": 3500000.0
    },
    {
      "facility_id": "tosyali-iskenderun",
      "operator": "Tosyal\u0131",
      "sector": "steel",
      "province": "Hatay",
      "lat": 36.61,
      "lon": 36.16,
      "annual_capacity_t": 3000000.0
    },
    {
      "facility_id": "tosyali-sivas",
      "operator": "Tosyal\u0131",
      "sector": "steel",
      "province": "Sivas",
      "lat": 39.75,
      "lon": 36.95,
      "annual_capacity_t": 1500000.0
    },
    {
      "facility_id": "icdas-biga",
      "operator": "\u0130\u00e7da\u015f",
      "sector": "steel",
      "province": "\u00c7anakkale",
      "lat": 40.4,
      "lon": 27.2,
      "annual_capacity_t": 3500000.0
    },
    {
      "facility_id": "colakoglu-gebze",
      "operator": "\u00c7olako\u011flu",
      "sector": "steel",
      "province": "Kocaeli",
      "lat": 40.79,
      "lon": 29.49,
      "annual_capacity_t": 4500000.0
    },
    {
      "facility_id": "ekinciler-iskenderun",
      "operator": "Ekinciler",
      "sector": "steel",
      "province": "Hatay",
      "lat": 36.65,
      "lon": 36.16,
      "annual_capacity_t": 2000000.0
    },
    {
      "facility_id": "borcelik-gemlik",
      "operator": "Bor\u00e7elik",
      "sector": "steel",
      "province": "Bursa",
      "lat": 40.42,
      "lon": 29.18,
      "annual_capacity_t": 1000000.0
    },
    {
      "facility_id": "habas-aliaga",
      "operator": "Haba\u015f",
      "sector": "steel",
      "province": "\u0130zmir",
      "lat": 38.79,
      "lon": 26.97,
      "annual_capacity_t": 4500000.0
    },
    {
      "facility_id": "kardemir-karabuk",
      "operator": "Kardemir",
      "sector": "steel",
      "province": "Karab\u00fck",
      "lat": 41.2,
      "lon": 32.62,
      "annual_capacity_t": 3500000.0
    },
    {
      "facility_id": "diler-aliaga",
      "operator": "Diler",
      "sector": "steel",
      "province": "\u0130zmir",
      "lat": 38.81,
      "lon": 26.97,
      "annual_capacity_t": 2000000.0
    },
    {
      "facility_id": "kroman-gebze",
      "operator": "Kroman \u00c7elik",
      "sector": "steel",
      "province": "Kocaeli",
      "lat": 40.79,
      "lon": 29.49,
      "annual_capacity_t": 1000000.0
    },
    {
      "facility_id": "izdemir-aliaga",
      "operator": "\u0130zdemir",
      "sector": "steel",
      "province": "\u0130zmir",
      "lat": 38.79,
      "lon": 26.95,
      "annual_capacity_t": 1500000.0
    },
    {
      "facility_id": "asilcelik-izmit",
      "operator": "Asil\u00e7elik",
      "sector": "steel",
      "province": "Kocaeli",
      "lat": 40.72,
      "lon": 29.94,
      "annual_capacity_t": 1000000.0
    },
    {
      "facility_id": "yazici-iskenderun",
      "operator": "Yaz\u0131c\u0131 Demir \u00c7elik",
      "sector": "steel",
      "province": "Hatay",
      "lat": 36.71,
      "lon": 36.21,
      "annual_capacity_t": 1000000.0
    },
    {
      "facility_id": "eti-aluminyum-seydisehir",
      "operator": "Eti Al\u00fcminyum",
      "sector": "aluminum",
      "province": "Konya",
      "lat": 37.42,
      "lon": 31.85,
      "annual_capacity_t": 80000.0
    },
    {
      "facility_id": "assan-tuzla",
      "operator": "Assan Al\u00fcminyum",
      "sector": "aluminum",
      "province": "\u0130stanbul",
      "lat": 40.85,
      "lon": 29.3,
      "annual_capacity_t": 360000.0
    },
    {
      "facility_id": "asas-akyazi",
      "operator": "Asa\u015f Al\u00fcminyum",
      "sector": "aluminum",
      "province": "Sakarya",
      "lat": 40.71,
      "lon": 30.59,
      "annual_capacity_t": 250000.0
    },
    {
      "facility_id": "toros-mersin",
      "operator": "Toros Tar\u0131m",
      "sector": "fertilizer",
      "province": "Mersin",
      "lat": 36.78,
      "lon": 34.61,
      "annual_capacity_t": 810000.0
    },
    {
      "facility_id": "toros-samsun",
      "operator": "Toros Tar\u0131m",
      "sector": "fertilizer",
      "province": "Samsun",
      "lat": 41.3,
      "lon": 36.32,
      "annual_capacity_t": 575000.0
    },
    {
      "facility_id": "toros-ceyhan",
      "operator": "Toros Tar\u0131m",
      "sector": "fertilizer",
      "province": "Adana",
      "lat": 36.84,
      "lon": 35.83,
      "annual_capacity_t": 821700.0
    },
    {
      "facility_id": "gubretas-izmit",
      "operator": "G\u00fcbreta\u015f",
      "sector": "fertilizer",
      "province": "Kocaeli",
      "lat": 40.77,
      "lon": 29.78,
      "annual_capacity_t": 800000.0
    },
    {
      "facility_id": "bagfas-bandirma",
      "operator": "BAGFA\u015e",
      "sector": "fertilizer",
      "province": "Bal\u0131kesir",
      "lat": 40.36,
      "lon": 27.94,
      "annual_capacity_t": 700000.0
    },
    {
      "facility_id": "gemlik-gubre",
      "operator": "Gemlik G\u00fcbre",
      "sector": "fertilizer",
      "province": "Bursa",
      "lat": 40.42,
      "lon": 29.16,
      "annual_capacity_t": 500000.0
    },
    {
      "facility_id": "afyon-cimento",
      "operator": "Afyon \u00c7imento",
      "sector": "cement",
      "province": "Afyonkarahisar",
      "lat": 38.756,
      "lon": 30.543,
      "annual_capacity_t": 1800000.0
    },
    {
      "facility_id": "batisoke-soke",
      "operator": "Bat\u0131s\u00f6ke S\u00f6ke \u00c7imento",
      "sector": "cement",
      "province": "Ayd\u0131n",
      "lat": 37.75,
      "lon": 27.401,
      "annual_capacity_t": 4000000.0
    }
  ]
}